places =
[{"placeName":"First Lutheran Church","descrip":"74.52% of the vote","latitude":29.656555,"longitude":-82.344882},
{"placeName":"Elks Lodge #990","descrip":"68.85% of the vote","latitude":29.675626,"longitude":-82.347253},
{"placeName":"Kanapaha Presbyterian Church","descrip":"54.78% of the vote","latitude":29.596826,"longitude":-82.422097},
{"placeName":"Z.L. Sung 7th-day Adventist School","descrip":"61.79% of the vote","latitude":29.687659,"longitude":-82.352222},
{"placeName":"Northwest Baptist Church","descrip":"60.9% of the vote","latitude":29.6749,"longitude":-82.401906},
{"placeName":"City College","descrip":"74.09% of the vote","latitude":29.660684,"longitude":-82.4165},
{"placeName":"Gainesville Baptist Church","descrip":"68.53% of the vote","latitude":29.669202,"longitude":-82.376054},
{"placeName":"Westside Recreation Center","descrip":"72.65% of the vote","latitude":29.661689,"longitude":-82.371077},
{"placeName":"J. Wayne Reitz Union","descrip":"77.43% of the vote","latitude":29.646151,"longitude":-82.347638},
{"placeName":"LifeSouth Community Blood Centers","descrip":"69.54% of the vote","latitude":29.654092,"longitude":-82.386601},
{"placeName":"Doyle Conner Building","descrip":"77.28% of the vote","latitude":29.63526,"longitude":-82.371523},
{"placeName":"Unitarian Universalist Fellowship","descrip":"58.61% of the vote","latitude":29.694288,"longitude":-82.370598},
{"placeName":"Hilton Garden Inn","descrip":"79.73% of the vote","latitude":29.623417,"longitude":-82.384556},
{"placeName":"University City Church Of Christ","descrip":"56.78% of the vote","latitude":29.66005,"longitude":-82.392628},
{"placeName":"Tower Road Branch Library","descrip":"50.92% of the vote","latitude":29.625806,"longitude":-82.423632},
{"placeName":"Grace United Methodist Church","descrip":"51.94% of the vote","latitude":29.659247,"longitude":-82.441145},
{"placeName":"Trinity United Methodist Church","descrip":"55.68% of the vote","latitude":29.705678,"longitude":-82.383874},
{"placeName":"Westminster Presbyterian Church","descrip":"68.09% of the vote","latitude":29.666269,"longitude":-82.371466},
{"placeName":"Faith Presbyterian Church","descrip":"56.86% of the vote","latitude":29.689725,"longitude":-82.406108},
{"placeName":"Covenant Presbyterian Church","descrip":"51.29% of the vote","latitude":29.662486,"longitude":-82.445825},
{"placeName":"The Atrium","descrip":"62.8% of the vote","latitude":29.674795,"longitude":-82.384498},
{"placeName":"North Central Baptist Church","descrip":"63.6% of the vote","latitude":29.673456,"longitude":-82.427752}]
